[
 {
   "id": 3317,
   "name": "Brisbane Archerfield Airport",
   "city": "Brisbane",
   "country": "Australia",
   "iata": "ACF",
   "latitude": -27.5702991486,
   "longitude": 153.007995605,
   "altitude": 63,
   "timezone": 10
 },
 {
   "id": 3318,
   "name": "Northern Peninsula Airport",
   "city": "Amberley",
   "country": "Australia",
   "iata": "ABM",
   "latitude": -10.9508,
   "longitude": 142.459,
   "altitude": 34,
   "timezone": 10
 },
 {
   "id": 3319,
   "name": "Alice Springs Airport",
   "city": "Alice Springs",
   "country": "Australia",
   "iata": "ASP",
   "latitude": -23.8066997528076,
   "longitude": 133.901992797852,
   "altitude": 1789,
   "timezone": 9.5
 },
 {
   "id": 3320,
   "name": "Brisbane International Airport",
   "city": "Brisbane",
   "country": "Australia",
   "iata": "BNE",
   "latitude": -27.3841991424561,
   "longitude": 153.117004394531,
   "altitude": 13,
   "timezone": 10
 },
 {
   "id": 3321,
   "name": "Gold Coast Airport",
   "city": "Coolangatta",
   "country": "Australia",
   "iata": "OOL",
   "latitude": -28.1644001007,
   "longitude": 153.505004883,
   "altitude": 21,
   "timezone": 10
 },
 {
   "id": 3322,
   "name": "Cairns International Airport",
   "city": "Cairns",
   "country": "Australia",
   "iata": "CNS",
   "latitude": -16.885799408,
   "longitude": 145.755004883,
   "altitude": 10,
   "timezone": 10
 },
 {
   "id": 3323,
   "name": "Charleville Airport",
   "city": "Charlieville",
   "country": "Australia",
   "iata": "CTL",
   "latitude": -26.4132995605,
   "longitude": 146.261993408,
   "altitude": 1003,
   "timezone": 10
 },
 {
   "id": 3324,
   "name": "Mount Isa Airport",
   "city": "Mount Isa",
   "country": "Australia",
   "iata": "ISA",
   "latitude": -20.6639003754,
   "longitude": 139.488998413,
   "altitude": 1121,
   "timezone": 10
 },
 {
   "id": 3325,
   "name": "Sunshine Coast Airport",
   "city": "Maroochydore",
   "country": "Australia",
   "iata": "MCY",
   "latitude": -26.6033,
   "longitude": 153.091003,
   "altitude": 15,
   "timezone": 10
 },
 {
   "id": 3326,
   "name": "Mackay Airport",
   "city": "Mackay",
   "country": "Australia",
   "iata": "MKY",
   "latitude": -21.1716995239,
   "longitude": 149.179992676,
   "altitude": 19,
   "timezone": 10
 },
 {
   "id": 3328,
   "name": "Proserpine Whitsunday Coast Airport",
   "city": "Prosserpine",
   "country": "Australia",
   "iata": "PPP",
   "latitude": -20.4950008392,
   "longitude": 148.552001953,
   "altitude": 82,
   "timezone": 10
 },
 {
   "id": 3329,
   "name": "Rockhampton Airport",
   "city": "Rockhampton",
   "country": "Australia",
   "iata": "ROK",
   "latitude": -23.3819007874,
   "longitude": 150.475006104,
   "altitude": 34,
   "timezone": 10
 },
 {
   "id": 3330,
   "name": "Townsville Airport",
   "city": "Townsville",
   "country": "Australia",
   "iata": "TSV",
   "latitude": -19.2525005340576,
   "longitude": 146.764999389648,
   "altitude": 18,
   "timezone": 10
 },
 {
   "id": 3331,
   "name": "Weipa Airport",
   "city": "Weipa",
   "country": "Australia",
   "iata": "WEI",
   "latitude": -12.6786003113,
   "longitude": 141.925003052,
   "altitude": 63,
   "timezone": 10
 },
 {
   "id": 3332,
   "name": "Avalon Airport",
   "city": "Avalon",
   "country": "Australia",
   "iata": "AVV",
   "latitude": -38.039398,
   "longitude": 144.468994,
   "altitude": 35,
   "timezone": 10
 },
 {
   "id": 3333,
   "name": "Albury Airport",
   "city": "Albury",
   "country": "Australia",
   "iata": "ABX",
   "latitude": -36.067798614502,
   "longitude": 146.957992553711,
   "altitude": 539,
   "timezone": 10
 },
 {
   "id": 3334,
   "name": "Melbourne Essendon Airport",
   "city": "Melbourne",
   "country": "Australia",
   "iata": "MEB",
   "latitude": -37.7281,
   "longitude": 144.901993,
   "altitude": 282,
   "timezone": 10
 },
 {
   "id": 3335,
   "name": "RAAF Base East Sale",
   "city": "East Sale",
   "country": "Australia",
   "iata": null,
   "latitude": -38.0988998413,
   "longitude": 147.149002075,
   "altitude": 23,
   "timezone": 10
 },
 {
   "id": 3336,
   "name": "Hobart International Airport",
   "city": "Hobart",
   "country": "Australia",
   "iata": "HBA",
   "latitude": -42.836101532,
   "longitude": 147.509994507,
   "altitude": 13,
   "timezone": 10
 },
 {
   "id": 3337,
   "name": "Launceston Airport",
   "city": "Launceston",
   "country": "Australia",
   "iata": "LST",
   "latitude": -41.54529953,
   "longitude": 147.214004517,
   "altitude": 562,
   "timezone": 10
 },
 {
   "id": 3338,
   "name": "Melbourne Moorabbin Airport",
   "city": "Melbourne",
   "country": "Australia",
   "iata": "MBW",
   "latitude": -37.9757995605469,
   "longitude": 145.102005004883,
   "altitude": 50,
   "timezone": 10
 },
 {
   "id": 3339,
   "name": "Melbourne International Airport",
   "city": "Melbourne",
   "country": "Australia",
   "iata": "MEL",
   "latitude": -37.673302,
   "longitude": 144.843002,
   "altitude": 434,
   "timezone": 10
 },
 {
   "id": 3340,
   "name": "RAAF Williams, Point Cook Base",
   "city": "Point Cook",
   "country": "Australia",
   "iata": null,
   "latitude": -37.932201,
   "longitude": 144.753006,
   "altitude": 14,
   "timezone": 10
 },
 {
   "id": 3341,
   "name": "Adelaide International Airport",
   "city": "Adelaide",
   "country": "Australia",
   "iata": "ADL",
   "latitude": -34.945,
   "longitude": 138.531006,
   "altitude": 20,
   "timezone": 9.5
 },
 {
   "id": 3343,
   "name": "RAAF Base Edinburgh",
   "city": "Edinburgh",
   "country": "Australia",
   "iata": null,
   "latitude": -34.7024993896484,
   "longitude": 138.621002197266,
   "altitude": 67,
   "timezone": 9.5
 },
 {
   "id": 3344,
   "name": "Perth Jandakot Airport",
   "city": "Perth",
   "country": "Australia",
   "iata": "JAD",
   "latitude": -32.0974998474121,
   "longitude": 115.880996704102,
   "altitude": 99,
   "timezone": 8
 },
 {
   "id": 3345,
   "name": "Karratha Airport",
   "city": "Karratha",
   "country": "Australia",
   "iata": "KTA",
   "latitude": -20.7122001648,
   "longitude": 116.773002625,
   "altitude": 29,
   "timezone": 8
 },
 {
   "id": 3346,
   "name": "Kalgoorlie Boulder Airport",
   "city": "Kalgoorlie",
   "country": "Australia",
   "iata": "KGI",
   "latitude": -30.7894001007,
   "longitude": 121.461997986,
   "altitude": 1203,
   "timezone": 8
 },
 {
   "id": 3347,
   "name": "Kununurra Airport",
   "city": "Kununurra",
   "country": "Australia",
   "iata": "KNX",
   "latitude": -15.7781000137,
   "longitude": 128.707992554,
   "altitude": 145,
   "timezone": 8
 },
 {
   "id": 3348,
   "name": "Learmonth Airport",
   "city": "Learmonth",
   "country": "Australia",
   "iata": "LEA",
   "latitude": -22.2355995178,
   "longitude": 114.088996887,
   "altitude": 19,
   "timezone": 8
 },
 {
   "id": 3349,
   "name": "Port Hedland International Airport",
   "city": "Port Hedland",
   "country": "Australia",
   "iata": "PHE",
   "latitude": -20.3777999878,
   "longitude": 118.625999451,
   "altitude": 33,
   "timezone": 8
 },
 {
   "id": 3350,
   "name": "Adelaide Parafield Airport",
   "city": "Adelaide",
   "country": "Australia",
   "iata": null,
   "latitude": -34.7933006287,
   "longitude": 138.632995605,
   "altitude": 57,
   "timezone": 9.5
 },
 {
   "id": 3351,
   "name": "Perth International Airport",
   "city": "Perth",
   "country": "Australia",
   "iata": "PER",
   "latitude": -31.940299987793,
   "longitude": 115.967002868652,
   "altitude": 67,
   "timezone": 8
 },
 {
   "id": 3352,
   "name": "Woomera Airfield",
   "city": "Woomera",
   "country": "Australia",
   "iata": "UMR",
   "latitude": -31.1441993713379,
   "longitude": 136.817001342773,
   "altitude": 548,
   "timezone": 9.5
 },
 {
   "id": 3354,
   "name": "Sydney Bankstown Airport",
   "city": "Sydney",
   "country": "Australia",
   "iata": "BWU",
   "latitude": -33.9244003295898,
   "longitude": 150.988006591797,
   "altitude": 29,
   "timezone": 10
 },
 {
   "id": 3355,
   "name": "Canberra International Airport",
   "city": "Canberra",
   "country": "Australia",
   "iata": "CBR",
   "latitude": -35.3069000244141,
   "longitude": 149.195007324219,
   "altitude": 1886,
   "timezone": 10
 },
 {
   "id": 3356,
   "name": "Coffs Harbour Airport",
   "city": "Coff's Harbour",
   "country": "Australia",
   "iata": "CFS",
   "latitude": -30.3206005096,
   "longitude": 153.115997314,
   "altitude": 18,
   "timezone": 10
 },
 {
   "id": 3357,
   "name": "Camden Airport",
   "city": "Camden",
   "country": "Australia",
   "iata": "CDU",
   "latitude": -34.0402984619141,
   "longitude": 150.686996459961,
   "altitude": 230,
   "timezone": 10
 },
 {
   "id": 3358,
   "name": "Dubbo City Regional Airport",
   "city": "Dubbo",
   "country": "Australia",
   "iata": "DBO",
   "latitude": -32.2167015076,
   "longitude": 148.574996948,
   "altitude": 935,
   "timezone": 10
 },
 {
   "id": 3360,
   "name": "RAAF Base Richmond",
   "city": "Richmond",
   "country": "Australia",
   "iata": "XRH",
   "latitude": -33.600601,
   "longitude": 150.781006,
   "altitude": 67,
   "timezone": 10
 },
 {
   "id": 3361,
   "name": "Sydney Kingsford Smith International Airport",
   "city": "Sydney",
   "country": "Australia",
   "iata": "SYD",
   "latitude": -33.9460983276367,
   "longitude": 151.177001953125,
   "altitude": 21,
   "timezone": 10
 },
 {
   "id": 3362,
   "name": "Tamworth Airport",
   "city": "Tamworth",
   "country": "Australia",
   "iata": "TMW",
   "latitude": -31.0839004517,
   "longitude": 150.847000122,
   "altitude": 1334,
   "timezone": 10
 },
 {
   "id": 3363,
   "name": "Wagga Wagga City Airport",
   "city": "Wagga Wagga",
   "country": "Australia",
   "iata": "WGA",
   "latitude": -35.1652984619,
   "longitude": 147.466003418,
   "altitude": 724,
   "timezone": 10
 },
 {
   "id": 3990,
   "name": "Emerald Airport",
   "city": "Emerald",
   "country": "Australia",
   "iata": "EMD",
   "latitude": -23.5674991608,
   "longitude": 148.179000854,
   "altitude": 624,
   "timezone": 10
 },
 {
   "id": 3999,
   "name": "Darwin International Airport",
   "city": "Darwin",
   "country": "Australia",
   "iata": "DRW",
   "latitude": -12.4146995544434,
   "longitude": 130.876998901367,
   "altitude": 103,
   "timezone": 9.5
 },
 {
   "id": 4010,
   "name": "Ayers Rock Connellan Airport",
   "city": "Uluru",
   "country": "Australia",
   "iata": "AYQ",
   "latitude": -25.1861,
   "longitude": 130.975998,
   "altitude": 1626,
   "timezone": 9.5
 },
 {
   "id": 4051,
   "name": "Kingscote Airport",
   "city": "Kingscote",
   "country": "Australia",
   "iata": "KGC",
   "latitude": -35.7139015197754,
   "longitude": 137.52099609375,
   "altitude": 24,
   "timezone": 9.5
 },
 {
   "id": 4052,
   "name": "Hervey Bay Airport",
   "city": "Hervey Bay",
   "country": "Australia",
   "iata": "HVB",
   "latitude": -25.3188991547,
   "longitude": 152.880004883,
   "altitude": 60,
   "timezone": 10
 },
 {
   "id": 4062,
   "name": "Armidale Airport",
   "city": "Armidale",
   "country": "Australia",
   "iata": "ARM",
   "latitude": -30.5280990601,
   "longitude": 151.617004395,
   "altitude": 3556,
   "timezone": 10
 },
 {
   "id": 4217,
   "name": "Blackall Airport",
   "city": "Blackall",
   "country": "Australia",
   "iata": "BKQ",
   "latitude": -24.4277992249,
   "longitude": 145.429000854,
   "altitude": 928,
   "timezone": 10
 },
 {
   "id": 4218,
   "name": "Bundaberg Airport",
   "city": "Bundaberg",
   "country": "Australia",
   "iata": "BDB",
   "latitude": -24.9039001465,
   "longitude": 152.319000244,
   "altitude": 107,
   "timezone": 10
 },
 {
   "id": 4221,
   "name": "Hayman Island Heliport",
   "city": "Hayman Island",
   "country": "Australia",
   "iata": null,
   "latitude": -20.0599,
   "longitude": 148.8834,
   "altitude": 8,
   "timezone": 10
 },
 {
   "id": 4289,
   "name": "Thangool Airport",
   "city": "Biloela",
   "country": "Australia",
   "iata": "THG",
   "latitude": -24.4939002990723,
   "longitude": 150.57600402832,
   "altitude": 644,
   "timezone": 10
 },
 {
   "id": 4291,
   "name": "Ballina Byron Gateway Airport",
   "city": "Ballina Byron Bay",
   "country": "Australia",
   "iata": "BNK",
   "latitude": -28.8339004517,
   "longitude": 153.56199646,
   "altitude": 7,
   "timezone": 10
 },
 {
   "id": 4319,
   "name": "Broome International Airport",
   "city": "Broome",
   "country": "Australia",
   "iata": "BME",
   "latitude": -17.9447002410889,
   "longitude": 122.232002258301,
   "altitude": 56,
   "timezone": 8
 },
 {
   "id": 4320,
   "name": "Newcastle Airport",
   "city": "Newcastle",
   "country": "Australia",
   "iata": "NTL",
   "latitude": -32.7949981689453,
   "longitude": 151.833999633789,
   "altitude": 31,
   "timezone": 10
 },
 {
   "id": 6235,
   "name": "Albany Airport",
   "city": "Albany",
   "country": "Australia",
   "iata": "ALH",
   "latitude": -34.9432983398438,
   "longitude": 117.80899810791,
   "altitude": 233,
   "timezone": 8
 },
 {
   "id": 6236,
   "name": "Argyle Airport",
   "city": "Argyle",
   "country": "Australia",
   "iata": "GYL",
   "latitude": -16.6369,
   "longitude": 128.451004,
   "altitude": 522,
   "timezone": 8
 },
 {
   "id": 6237,
   "name": "Aurukun Airport",
   "city": "Aurukun",
   "country": "Australia",
   "iata": "AUU",
   "latitude": -13.354067,
   "longitude": 141.72065,
   "altitude": 31,
   "timezone": 10
 },
 {
   "id": 6238,
   "name": "Barcaldine Airport",
   "city": "Barcaldine",
   "country": "Australia",
   "iata": "BCI",
   "latitude": -23.5652999878,
   "longitude": 145.307006836,
   "altitude": 878,
   "timezone": 10
 },
 {
   "id": 6239,
   "name": "Badu Island Airport",
   "city": "Badu Island",
   "country": "Australia",
   "iata": "BDD",
   "latitude": -10.1499996185,
   "longitude": 142.1734,
   "altitude": 14,
   "timezone": 10
 },
 {
   "id": 6240,
   "name": "Birdsville Airport",
   "city": "Birdsville",
   "country": "Australia",
   "iata": "BVI",
   "latitude": -25.8974990844727,
   "longitude": 139.348007202148,
   "altitude": 159,
   "timezone": 10
 },
 {
   "id": 6241,
   "name": "Broken Hill Airport",
   "city": "Broken Hill",
   "country": "Australia",
   "iata": "BHQ",
   "latitude": -32.0013999939,
   "longitude": 141.472000122,
   "altitude": 958,
   "timezone": 9.5
 },
 {
   "id": 6242,
   "name": "Hamilton Island Airport",
   "city": "Hamilton Island",
   "country": "Australia",
   "iata": "HTI",
   "latitude": -20.3581008911,
   "longitude": 148.95199585,
   "altitude": 15,
   "timezone": 10
 },
 {
   "id": 6243,
   "name": "Bedourie Airport",
   "city": "Bedourie",
   "country": "Australia",
   "iata": "BEU",
   "latitude": -24.3460998535156,
   "longitude": 139.460006713867,
   "altitude": 300,
   "timezone": 10
 },
 {
   "id": 6244,
   "name": "Bourke Airport",
   "city": "Bourke",
   "country": "Australia",
   "iata": "BRK",
   "latitude": -30.0391998291016,
   "longitude": 145.951995849609,
   "altitude": 352,
   "timezone": 10
 },
 {
   "id": 6245,
   "name": "Burketown Airport",
   "city": "Burketown",
   "country": "Australia",
   "iata": "BUC",
   "latitude": -17.7486000061035,
   "longitude": 139.533996582031,
   "altitude": 21,
   "timezone": 10
 },
 {
   "id": 6246,
   "name": "Boigu Airport",
   "city": "Boigu",
   "country": "Australia",
   "iata": "GIC",
   "latitude": -9.23278045654,
   "longitude": 142.218002319,
   "altitude": 23,
   "timezone": 10
 },
 {
   "id": 6247,
   "name": "Oakey Airport",
   "city": "Oakey",
   "country": "Australia",
   "iata": "OKY",
   "latitude": -27.4113998413086,
   "longitude": 151.735000610352,
   "altitude": 1335,
   "timezone": 10
 },
 {
   "id": 6248,
   "name": "Boulia Airport",
   "city": "Boulia",
   "country": "Australia",
   "iata": "BQL",
   "latitude": -22.9132995605469,
   "longitude": 139.899993896484,
   "altitude": 542,
   "timezone": 10
 },
 {
   "id": 6249,
   "name": "Bathurst Airport",
   "city": "Bathurst",
   "country": "Australia",
   "iata": "BHS",
   "latitude": -33.4094009399,
   "longitude": 149.651992798,
   "altitude": 2435,
   "timezone": 10
 },
 {
   "id": 6250,
   "name": "Blackwater Airport",
   "city": "Blackwater",
   "country": "Australia",
   "iata": "BLT",
   "latitude": -23.603099822998,
   "longitude": 148.807006835938,
   "altitude": 657,
   "timezone": 10
 },
 {
   "id": 6251,
   "name": "Carnarvon Airport",
   "city": "Carnarvon",
   "country": "Australia",
   "iata": "CVQ",
   "latitude": -24.880211,
   "longitude": 113.67174,
   "altitude": 13,
   "timezone": 8
 },
 {
   "id": 6252,
   "name": "Cobar Airport",
   "city": "Cobar",
   "country": "Australia",
   "iata": "CAZ",
   "latitude": -31.5382995605469,
   "longitude": 145.794006347656,
   "altitude": 724,
   "timezone": 10
 },
 {
   "id": 6253,
   "name": "Coober Pedy Airport",
   "city": "Coober Pedy",
   "country": "Australia",
   "iata": "CPD",
   "latitude": -29.0400009155273,
   "longitude": 134.720993041992,
   "altitude": 740,
   "timezone": 9.5
 },
 {
   "id": 6254,
   "name": "Coconut Island Airport",
   "city": "Coconut Island",
   "country": "Australia",
   "iata": "CNC",
   "latitude": -10.0500001907349,
   "longitude": 143.070007324219,
   "altitude": 3,
   "timezone": 10
 },
 {
   "id": 6255,
   "name": "Cloncurry Airport",
   "city": "Cloncurry",
   "country": "Australia",
   "iata": "CNJ",
   "latitude": -20.6686000824,
   "longitude": 140.503997803,
   "altitude": 616,
   "timezone": 10
 },
 {
   "id": 6256,
   "name": "Ceduna Airport",
   "city": "Ceduna",
   "country": "Australia",
   "iata": "CED",
   "latitude": -32.1305999755859,
   "longitude": 133.710006713867,
   "altitude": 77,
   "timezone": 9.5
 },
 {
   "id": 6257,
   "name": "Cooktown Airport",
   "city": "Cooktown",
   "country": "Australia",
   "iata": "CTN",
   "latitude": -15.4447002410889,
   "longitude": 145.184005737305,
   "altitude": 26,
   "timezone": 10
 },
 {
   "id": 6258,
   "name": "Cunnamulla Airport",
   "city": "Cunnamulla",
   "country": "Australia",
   "iata": "CMA",
   "latitude": -28.0300006866455,
   "longitude": 145.621994018555,
   "altitude": 630,
   "timezone": 10
 },
 {
   "id": 6259,
   "name": "Coonamble Airport",
   "city": "Coonamble",
   "country": "Australia",
   "iata": "CNB",
   "latitude": -30.9832992553711,
   "longitude": 148.376007080078,
   "altitude": 604,
   "timezone": 10
 },
 {
   "id": 6260,
   "name": "Coen Airport",
   "city": "Coen",
   "country": "Australia",
   "iata": "CUQ",
   "latitude": -13.761133,
   "longitude": 143.113311,
   "altitude": 532,
   "timezone": 10
 },
 {
   "id": 6261,
   "name": "Cooma Snowy Mountains Airport",
   "city": "Cooma",
   "country": "Australia",
   "iata": "OOM",
   "latitude": -36.3005981445,
   "longitude": 148.973999023,
   "altitude": 3088,
   "timezone": 10
 },
 {
   "id": 6262,
   "name": "Doomadgee Airport",
   "city": "Doomadgee",
   "country": "Australia",
   "iata": "DMD",
   "latitude": -17.9403,
   "longitude": 138.822006,
   "altitude": 153,
   "timezone": 10
 },
 {
   "id": 6263,
   "name": "Darnley Island Airport",
   "city": "Darnley Island",
   "country": "Australia",
   "iata": "NLF",
   "latitude": -9.58333015441895,
   "longitude": 143.766998291016,
   "altitude": 0,
   "timezone": 10
 },
 {
   "id": 6264,
   "name": "Devonport Airport",
   "city": "Devonport",
   "country": "Australia",
   "iata": "DPO",
   "latitude": -41.1697006226,
   "longitude": 146.429992676,
   "altitude": 33,
   "timezone": 10
 },
 {
   "id": 6265,
   "name": "Elcho Island Airport",
   "city": "Elcho Island",
   "country": "Australia",
   "iata": "ELC",
   "latitude": -12.0193996429,
   "longitude": 135.570999146,
   "altitude": 101,
   "timezone": 9.5
 },
 {
   "id": 6266,
   "name": "Esperance Airport",
   "city": "Esperance",
   "country": "Australia",
   "iata": "EPR",
   "latitude": -33.684399,
   "longitude": 121.822998,
   "altitude": 470,
   "timezone": 8
 },
 {
   "id": 6267,
   "name": "Flinders Island Airport",
   "city": "Flinders Island",
   "country": "Australia",
   "iata": "FLS",
   "latitude": -40.0917015076,
   "longitude": 147.992996216,
   "altitude": 10,
   "timezone": 10
 },
 {
   "id": 6268,
   "name": "Geraldton Airport",
   "city": "Geraldton",
   "country": "Australia",
   "iata": "GET",
   "latitude": -28.796101,
   "longitude": 114.707001,
   "altitude": 121,
   "timezone": 8
 },
 {
   "id": 6269,
   "name": "Gladstone Airport",
   "city": "Gladstone",
   "country": "Australia",
   "iata": "GLT",
   "latitude": -23.869699,
   "longitude": 151.223007,
   "altitude": 64,
   "timezone": 10
 },
 {
   "id": 6270,
   "name": "Groote Eylandt Airport",
   "city": "Groote Eylandt",
   "country": "Australia",
   "iata": "GTE",
   "latitude": -13.9750003815,
   "longitude": 136.460006714,
   "altitude": 53,
   "timezone": 9.5
 },
 {
   "id": 6271,
   "name": "Griffith Airport",
   "city": "Griffith",
   "country": "Australia",
   "iata": "GFF",
   "latitude": -34.2508010864,
   "longitude": 146.067001343,
   "altitude": 439,
   "timezone": 10
 },
 {
   "id": 6272,
   "name": "Horn Island Airport",
   "city": "Horn Island",
   "country": "Australia",
   "iata": "HID",
   "latitude": -10.586400032,
   "longitude": 142.289993286,
   "altitude": 43,
   "timezone": 10
 },
 {
   "id": 6273,
   "name": "Hooker Creek Airport",
   "city": "Hooker Creek",
   "country": "Australia",
   "iata": "HOK",
   "latitude": -18.3367004395,
   "longitude": 130.638000488,
   "altitude": 320,
   "timezone": 9.5
 },
 {
   "id": 6274,
   "name": "Mount Hotham Airport",
   "city": "Mount Hotham",
   "country": "Australia",
   "iata": "MHU",
   "latitude": -37.0475006104,
   "longitude": 147.333999634,
   "altitude": 4260,
   "timezone": 10
 },
 {
   "id": 6275,
   "name": "Hughenden Airport",
   "city": "Hughenden",
   "country": "Australia",
   "iata": "HGD",
   "latitude": -20.8150005340576,
   "longitude": 144.225006103516,
   "altitude": 1043,
   "timezone": 10
 },
 {
   "id": 6276,
   "name": "Julia Creek Airport",
   "city": "Julia Creek",
   "country": "Australia",
   "iata": "JCK",
   "latitude": -20.6683006286621,
   "longitude": 141.723007202148,
   "altitude": 404,
   "timezone": 10
 },
 {
   "id": 6277,
   "name": "Kalbarri Airport",
   "city": "Kalbarri",
   "country": "Australia",
   "iata": "KAX",
   "latitude": -27.692813,
   "longitude": 114.259169,
   "altitude": 157,
   "timezone": 8
 },
 {
   "id": 6278,
   "name": "King Island Airport",
   "city": "King Island",
   "country": "Australia",
   "iata": "KNS",
   "latitude": -39.877498626709,
   "longitude": 143.878005981445,
   "altitude": 132,
   "timezone": 10
 },
 {
   "id": 6279,
   "name": "Kalkgurung Airport",
   "city": "Kalkgurung",
   "country": "Australia",
   "iata": "KFG",
   "latitude": -17.4319000244141,
   "longitude": 130.807998657227,
   "altitude": 646,
   "timezone": 9.5
 },
 {
   "id": 6280,
   "name": "Karumba Airport",
   "city": "Karumba",
   "country": "Australia",
   "iata": "KRB",
   "latitude": -17.4566993713379,
   "longitude": 140.830001831055,
   "altitude": 5,
   "timezone": 10
 },
 {
   "id": 6281,
   "name": "Kowanyama Airport",
   "city": "Kowanyama",
   "country": "Australia",
   "iata": "KWM",
   "latitude": -15.4856004714966,
   "longitude": 141.751007080078,
   "altitude": 35,
   "timezone": 10
 },
 {
   "id": 6282,
   "name": "Kubin Airport",
   "city": "Kubin",
   "country": "Australia",
   "iata": "KUG",
   "latitude": -10.2250003815,
   "longitude": 142.218002319,
   "altitude": 15,
   "timezone": 10
 },
 {
   "id": 6283,
   "name": "Leonora Airport",
   "city": "Leonora",
   "country": "Australia",
   "iata": "LNO",
   "latitude": -28.8780994415283,
   "longitude": 121.315002441406,
   "altitude": 1217,
   "timezone": 8
 },
 {
   "id": 6284,
   "name": "Lake Evella Airport",
   "city": "Lake Evella",
   "country": "Australia",
   "iata": "LEL",
   "latitude": -12.4989004135132,
   "longitude": 135.805999755859,
   "altitude": 256,
   "timezone": 9.5
 },
 {
   "id": 6285,
   "name": "Lord Howe Island Airport",
   "city": "Lord Howe Island",
   "country": "Australia",
   "iata": "LDH",
   "latitude": -31.5382995605,
   "longitude": 159.07699585,
   "altitude": 5,
   "timezone": 10.5
 },
 {
   "id": 6286,
   "name": "Lockhart River Airport",
   "city": "Lockhart River",
   "country": "Australia",
   "iata": "IRG",
   "latitude": -12.7869,
   "longitude": 143.304993,
   "altitude": 77,
   "timezone": 10
 },
 {
   "id": 6287,
   "name": "Lismore Airport",
   "city": "Lismore",
   "country": "Australia",
   "iata": "LSY",
   "latitude": -28.8302993774,
   "longitude": 153.259994507,
   "altitude": 35,
   "timezone": 10
 },
 {
   "id": 6288,
   "name": "Lightning Ridge Airport",
   "city": "Lightning Ridge",
   "country": "Australia",
   "iata": "LHG",
   "latitude": -29.4566993713379,
   "longitude": 147.983993530273,
   "altitude": 540,
   "timezone": 10
 },
 {
   "id": 6289,
   "name": "Longreach Airport",
   "city": "Longreach",
   "country": "Australia",
   "iata": "LRE",
   "latitude": -23.4342002869,
   "longitude": 144.279998779,
   "altitude": 627,
   "timezone": 10
 },
 {
   "id": 6290,
   "name": "Leinster Airport",
   "city": "Leinster",
   "country": "Australia",
   "iata": "LER",
   "latitude": -27.8432998657227,
   "longitude": 120.703002929688,
   "altitude": 1631,
   "timezone": 8
 },
 {
   "id": 6291,
   "name": "Laverton Airport",
   "city": "Laverton",
   "country": "Australia",
   "iata": "LVO",
   "latitude": -28.6135997772217,
   "longitude": 122.424003601074,
   "altitude": 1530,
   "timezone": 8
 },
 {
   "id": 6292,
   "name": "Mabuiag Island Airport",
   "city": "Mabuiag Island",
   "country": "Australia",
   "iata": "UBB",
   "latitude": -9.94999980926514,
   "longitude": 142.182998657227,
   "altitude": 0,
   "timezone": 10
 },
 {
   "id": 6293,
   "name": "Meekatharra Airport",
   "city": "Meekatharra",
   "country": "Australia",
   "iata": "MKR",
   "latitude": -26.6117000579834,
   "longitude": 118.547996520996,
   "altitude": 1713,
   "timezone": 8
 },
 {
   "id": 6294,
   "name": "Merimbula Airport",
   "city": "Merimbula",
   "country": "Australia",
   "iata": "MIM",
   "latitude": -36.9085998535,
   "longitude": 149.901000977,
   "altitude": 7,
   "timezone": 10
 },
 {
   "id": 6295,
   "name": "Milingimbi Airport",
   "city": "Milingimbi",
   "country": "Australia",
   "iata": "MGT",
   "latitude": -12.0944004059,
   "longitude": 134.893997192,
   "altitude": 53,
   "timezone": 9.5
 },
 {
   "id": 6296,
   "name": "Maningrida Airport",
   "city": "Maningrida",
   "country": "Australia",
   "iata": "MNG",
   "latitude": -12.0560998917,
   "longitude": 134.23399353,
   "altitude": 123,
   "timezone": 9.5
 },
 {
   "id": 6297,
   "name": "McArthur River Mine Airport",
   "city": "McArthur River Mine",
   "country": "Australia",
   "iata": "MCV",
   "latitude": -16.4424991608,
   "longitude": 136.083999634,
   "altitude": 131,
   "timezone": 9.5
 },
 {
   "id": 6298,
   "name": "Mildura Airport",
   "city": "Mildura",
   "country": "Australia",
   "iata": "MQL",
   "latitude": -34.2291984558,
   "longitude": 142.085998535,
   "altitude": 167,
   "timezone": 10
 },
 {
   "id": 6299,
   "name": "Mount Magnet Airport",
   "city": "Mount Magnet",
   "country": "Australia",
   "iata": "MMG",
   "latitude": -28.1161003112793,
   "longitude": 117.842002868652,
   "altitude": 1354,
   "timezone": 8
 },
 {
   "id": 6300,
   "name": "Moree Airport",
   "city": "Moree",
   "country": "Australia",
   "iata": "MRZ",
   "latitude": -29.4988994598,
   "longitude": 149.845001221,
   "altitude": 701,
   "timezone": 10
 },
 {
   "id": 6301,
   "name": "Moranbah Airport",
   "city": "Moranbah",
   "country": "Australia",
   "iata": "MOV",
   "latitude": -22.057800293,
   "longitude": 148.07699585,
   "altitude": 770,
   "timezone": 10
 },
 {
   "id": 6302,
   "name": "Moruya Airport",
   "city": "Moruya",
   "country": "Australia",
   "iata": "MYA",
   "latitude": -35.8978004456,
   "longitude": 150.143997192,
   "altitude": 14,
   "timezone": 10
 },
 {
   "id": 6303,
   "name": "Mount Gambier Airport",
   "city": "Mount Gambier",
   "country": "Australia",
   "iata": "MGB",
   "latitude": -37.7456016540527,
   "longitude": 140.785003662109,
   "altitude": 212,
   "timezone": 9.5
 },
 {
   "id": 6304,
   "name": "Mornington Island Airport",
   "city": "Mornington Island",
   "country": "Australia",
   "iata": "ONG",
   "latitude": -16.6625003814697,
   "longitude": 139.177993774414,
   "altitude": 33,
   "timezone": 10
 },
 {
   "id": 6305,
   "name": "Murray Island Airport",
   "city": "Murray Island",
   "country": "Australia",
   "iata": "MYI",
   "latitude": -9.91666984558,
   "longitude": 144.054992676,
   "altitude": 300,
   "timezone": 10
 },
 {
   "id": 6306,
   "name": "Maryborough Airport",
   "city": "Maryborough",
   "country": "Australia",
   "iata": "MBH",
   "latitude": -25.5133,
   "longitude": 152.714996,
   "altitude": 38,
   "timezone": 10
 },
 {
   "id": 6307,
   "name": "Narrandera Airport",
   "city": "Narrandera",
   "country": "Australia",
   "iata": "NRA",
   "latitude": -34.7022018433,
   "longitude": 146.511993408,
   "altitude": 474,
   "timezone": 10
 },
 {
   "id": 6308,
   "name": "Narrabri Airport",
   "city": "Narrabri",
   "country": "Australia",
   "iata": "NAA",
   "latitude": -30.3192005157,
   "longitude": 149.82699585,
   "altitude": 788,
   "timezone": 10
 },
 {
   "id": 6309,
   "name": "Normanton Airport",
   "city": "Normanton",
   "country": "Australia",
   "iata": "NTN",
   "latitude": -17.68409,
   "longitude": 141.069664,
   "altitude": 73,
   "timezone": 10
 },
 {
   "id": 6310,
   "name": "Newman Airport",
   "city": "Newman",
   "country": "Australia",
   "iata": "ZNE",
   "latitude": -23.4178009033,
   "longitude": 119.803001404,
   "altitude": 1724,
   "timezone": 8
 },
 {
   "id": 6311,
   "name": "Olympic Dam Airport",
   "city": "Olympic Dam",
   "country": "Australia",
   "iata": "OLP",
   "latitude": -30.4850006104,
   "longitude": 136.876998901,
   "altitude": 343,
   "timezone": 9.5
 },
 {
   "id": 6312,
   "name": "Port Augusta Airport",
   "city": "Argyle",
   "country": "Australia",
   "iata": "PUG",
   "latitude": -32.5069007873535,
   "longitude": 137.716995239258,
   "altitude": 56,
   "timezone": 9.5
 },
 {
   "id": 6313,
   "name": "Palm Island Airport",
   "city": "Palm Island",
   "country": "Australia",
   "iata": "PMK",
   "latitude": -18.7553005218506,
   "longitude": 146.580993652344,
   "altitude": 28,
   "timezone": 10
 },
 {
   "id": 6314,
   "name": "Paraburdoo Airport",
   "city": "Paraburdoo",
   "country": "Australia",
   "iata": "PBO",
   "latitude": -23.1711006165,
   "longitude": 117.745002747,
   "altitude": 1406,
   "timezone": 8
 },
 {
   "id": 6316,
   "name": "Gove Airport",
   "city": "Gove",
   "country": "Australia",
   "iata": "GOV",
   "latitude": -12.2693996429,
   "longitude": 136.817993164,
   "altitude": 192,
   "timezone": 9.5
 },
 {
   "id": 6317,
   "name": "Parkes Airport",
   "city": "Parkes",
   "country": "Australia",
   "iata": "PKE",
   "latitude": -33.131401062,
   "longitude": 148.238998413,
   "altitude": 1069,
   "timezone": 10
 },
 {
   "id": 6318,
   "name": "Port Lincoln Airport",
   "city": "Port Lincoln",
   "country": "Australia",
   "iata": "PLO",
   "latitude": -34.6053009033,
   "longitude": 135.880004883,
   "altitude": 36,
   "timezone": 9.5
 },
 {
   "id": 6319,
   "name": "Pormpuraaw Airport",
   "city": "Pormpuraaw",
   "country": "Australia",
   "iata": "EDR",
   "latitude": -14.896451,
   "longitude": 141.60908,
   "altitude": 10,
   "timezone": 10
 },
 {
   "id": 6320,
   "name": "Port Macquarie Airport",
   "city": "Port Macquarie",
   "country": "Australia",
   "iata": "PQQ",
   "latitude": -31.4358005524,
   "longitude": 152.863006592,
   "altitude": 12,
   "timezone": 10
 },
 {
   "id": 6321,
   "name": "Portland Airport",
   "city": "Portland",
   "country": "Australia",
   "iata": "PTJ",
   "latitude": -38.3180999755859,
   "longitude": 141.470993041992,
   "altitude": 265,
   "timezone": 10
 },
 {
   "id": 6322,
   "name": "Quilpie Airport",
   "city": "Quilpie",
   "country": "Australia",
   "iata": "ULP",
   "latitude": -26.6121997833252,
   "longitude": 144.253005981445,
   "altitude": 655,
   "timezone": 10
 },
 {
   "id": 6323,
   "name": "Ramingining Airport",
   "city": "Ramingining",
   "country": "Australia",
   "iata": "RAM",
   "latitude": -12.3563995361328,
   "longitude": 134.897994995117,
   "altitude": 206,
   "timezone": 9.5
 },
 {
   "id": 6324,
   "name": "Roma Airport",
   "city": "Roma",
   "country": "Australia",
   "iata": "RMA",
   "latitude": -26.5450000763,
   "longitude": 148.774993896,
   "altitude": 1032,
   "timezone": 10
 },
 {
   "id": 6325,
   "name": "St George Airport",
   "city": "St George",
   "country": "Australia",
   "iata": "SGO",
   "latitude": -28.0496997833252,
   "longitude": 148.595001220703,
   "altitude": 656,
   "timezone": 10
 },
 {
   "id": 6326,
   "name": "Shark Bay Airport",
   "city": "Shark Bay",
   "country": "Australia",
   "iata": "MJK",
   "latitude": -25.8938999176,
   "longitude": 113.577003479,
   "altitude": 111,
   "timezone": 8
 },
 {
   "id": 6327,
   "name": "Saibai Island Airport",
   "city": "Saibai Island",
   "country": "Australia",
   "iata": "SBR",
   "latitude": -9.37833023071,
   "longitude": 142.625,
   "altitude": 15,
   "timezone": 10
 },
 {
   "id": 6328,
   "name": "Strahan Airport",
   "city": "Strahan",
   "country": "Australia",
   "iata": "SRN",
   "latitude": -42.1549987792969,
   "longitude": 145.292007446289,
   "altitude": 20,
   "timezone": 10
 },
 {
   "id": 6329,
   "name": "Thargomindah Airport",
   "city": "Thargomindah",
   "country": "Australia",
   "iata": "XTG",
   "latitude": -27.986400604248,
   "longitude": 143.811004638672,
   "altitude": 433,
   "timezone": 10
 },
 {
   "id": 6330,
   "name": "Tennant Creek Airport",
   "city": "Tennant Creek",
   "country": "Australia",
   "iata": "TCA",
   "latitude": -19.6343994140625,
   "longitude": 134.182998657227,
   "altitude": 1236,
   "timezone": 9.5
 },
 {
   "id": 6331,
   "name": "Victoria River Downs Airport",
   "city": "Victoria River Downs",
   "country": "Australia",
   "iata": "VCD",
   "latitude": -16.4021244049072,
   "longitude": 131.004974365234,
   "altitude": 89,
   "timezone": 9.5
 },
 {
   "id": 6332,
   "name": "Warraber Island Airport",
   "city": "Sue Islet",
   "country": "Australia",
   "iata": "SYU",
   "latitude": -10.2082996368408,
   "longitude": 142.824996948242,
   "altitude": 3,
   "timezone": 10
 },
 {
   "id": 6333,
   "name": "Windorah Airport",
   "city": "Windorah",
   "country": "Australia",
   "iata": "WNR",
   "latitude": -25.4130992889404,
   "longitude": 142.667007446289,
   "altitude": 452,
   "timezone": 10
 },
 {
   "id": 6334,
   "name": "Whyalla Airport",
   "city": "Whyalla",
   "country": "Australia",
   "iata": "WYA",
   "latitude": -33.0588989257812,
   "longitude": 137.514007568359,
   "altitude": 41,
   "timezone": 9.5
 },
 {
   "id": 6335,
   "name": "Wiluna Airport",
   "city": "Wiluna",
   "country": "Australia",
   "iata": "WUN",
   "latitude": -26.6291999816895,
   "longitude": 120.221000671387,
   "altitude": 1649,
   "timezone": 8
 },
 {
   "id": 6336,
   "name": "Wollongong Airport",
   "city": "Wollongong",
   "country": "Australia",
   "iata": "WOL",
   "latitude": -34.5611000061035,
   "longitude": 150.789001464844,
   "altitude": 31,
   "timezone": 10
 },
 {
   "id": 6337,
   "name": "Winton Airport",
   "city": "Winton",
   "country": "Australia",
   "iata": "WIN",
   "latitude": -22.3635997772217,
   "longitude": 143.085998535156,
   "altitude": 638,
   "timezone": 10
 },
 {
   "id": 6338,
   "name": "Wynyard Airport",
   "city": "Burnie",
   "country": "Australia",
   "iata": "BWT",
   "latitude": -40.9989013671875,
   "longitude": 145.731002807617,
   "altitude": 62,
   "timezone": 10
 },
 {
   "id": 6339,
   "name": "Yorke Island Airport",
   "city": "Yorke Island",
   "country": "Australia",
   "iata": "OKR",
   "latitude": -9.752801,
   "longitude": 143.405673,
   "altitude": 10,
   "timezone": 10
 },
 {
   "id": 6340,
   "name": "Yam Island Airport",
   "city": "Yam Island",
   "country": "Australia",
   "iata": "XMY",
   "latitude": -9.90110969543457,
   "longitude": 142.776000976562,
   "altitude": 0,
   "timezone": 10
 },
 {
   "id": 6419,
   "name": "Mount Keith Airport",
   "city": "Mount Keith",
   "country": "Australia",
   "iata": "WME",
   "latitude": -27.2863998413086,
   "longitude": 120.555000305176,
   "altitude": 1792,
   "timezone": 8
 },
 {
   "id": 6792,
   "name": "Grafton Airport",
   "city": "Grafton",
   "country": "Australia",
   "iata": "GFN",
   "latitude": -29.7593994140625,
   "longitude": 153.029998779297,
   "altitude": 110,
   "timezone": 10
 },
 {
   "id": 6793,
   "name": "Orange Airport",
   "city": "Orange",
   "country": "Australia",
   "iata": "OAG",
   "latitude": -33.3816986084,
   "longitude": 149.132995605,
   "altitude": 3115,
   "timezone": 10
 },
 {
   "id": 6794,
   "name": "Taree Airport",
   "city": "Taree",
   "country": "Australia",
   "iata": "TRO",
   "latitude": -31.8885993958,
   "longitude": 152.514007568,
   "altitude": 38,
   "timezone": 10
 },
 {
   "id": 6805,
   "name": "Goulburn Airport",
   "city": "Goulburn",
   "country": "Australia",
   "iata": "GUL",
   "latitude": -34.8102989196777,
   "longitude": 149.725997924805,
   "altitude": 2141,
   "timezone": 10
 },
 {
   "id": 6806,
   "name": "Cessnock Airport",
   "city": "Cessnock",
   "country": "Australia",
   "iata": "CES",
   "latitude": -32.787498,
   "longitude": 151.341995,
   "altitude": 210,
   "timezone": 10
 },
 {
   "id": 6807,
   "name": "Scone Airport",
   "city": "Scone",
   "country": "Australia",
   "iata": "NSO",
   "latitude": -32.0372009277344,
   "longitude": 150.832000732422,
   "altitude": 745,
   "timezone": 10
 },
 {
   "id": 6808,
   "name": "Mudgee Airport",
   "city": "Mudgee",
   "country": "Australia",
   "iata": "DGE",
   "latitude": -32.5625,
   "longitude": 149.610992432,
   "altitude": 1545,
   "timezone": 10
 },
 {
   "id": 6809,
   "name": "Maitland Airport",
   "city": "Maitland",
   "country": "Australia",
   "iata": "MTL",
   "latitude": -32.701265,
   "longitude": 151.492912,
   "altitude": 85,
   "timezone": 10
 },
 {
   "id": 6829,
   "name": "Oceanside Municipal Airport",
   "city": "Fraser Island",
   "country": "Australia",
   "iata": "OCN",
   "latitude": 33.217300415039,
   "longitude": -117.35399627686,
   "altitude": 28,
   "timezone": -8
 },
 {
   "id": 6860,
   "name": "Bungle Bungle Airport",
   "city": "Bungle Bungle",
   "country": "Australia",
   "iata": null,
   "latitude": -17.5452995300293,
   "longitude": 128.307006835938,
   "altitude": 0,
   "timezone": 8
 },
 {
   "id": 6870,
   "name": "Whitsunday Island Airport",
   "city": "Airlie Beach",
   "country": "Australia",
   "iata": "WSY",
   "latitude": -20.27611,
   "longitude": 148.755,
   "altitude": 40,
   "timezone": 10
 },
 {
   "id": 6896,
   "name": "RAAF Base Amberley",
   "city": "Amberley",
   "country": "Australia",
   "iata": null,
   "latitude": -27.6406,
   "longitude": 152.712006,
   "altitude": 91,
   "timezone": 10
 },
 {
   "id": 6897,
   "name": "Tindal Airport",
   "city": "Katherine",
   "country": "Australia",
   "iata": "KTR",
   "latitude": -14.5211000442505,
   "longitude": 132.378005981445,
   "altitude": 443,
   "timezone": 9.5
 },
 {
   "id": 6898,
   "name": "RAAF Williams, Laverton Base",
   "city": "Laverton",
   "country": "Australia",
   "iata": null,
   "latitude": -37.8636016845703,
   "longitude": 144.746002197266,
   "altitude": 18,
   "timezone": 10
 },
 {
   "id": 6899,
   "name": "Nowra Airport",
   "city": "Nowra",
   "country": "Australia",
   "iata": "NOA",
   "latitude": -34.9488983154297,
   "longitude": 150.537002563477,
   "altitude": 400,
   "timezone": 10
 },
 {
   "id": 6914,
   "name": "RAAF Base Pearce",
   "city": "Perth",
   "country": "Australia",
   "iata": null,
   "latitude": -31.6678009033203,
   "longitude": 116.014999389648,
   "altitude": 149,
   "timezone": 8
 },
 {
   "id": 6915,
   "name": "Bendigo Airport",
   "city": "Bendigo",
   "country": "Australia",
   "iata": "BXG",
   "latitude": -36.7393989563,
   "longitude": 144.330001831,
   "altitude": 705,
   "timezone": 10
 },
 {
   "id": 7128,
   "name": "Toowoomba Airport",
   "city": "Toowoomba",
   "country": "Australia",
   "iata": "TWB",
   "latitude": -27.542801,
   "longitude": 151.916,
   "altitude": 2086,
   "timezone": 10
 },
 {
   "id": 7129,
   "name": "Ballera Airport",
   "city": "Ballera",
   "country": "Australia",
   "iata": "BBL",
   "latitude": -27.405633,
   "longitude": 141.809458,
   "altitude": 385,
   "timezone": 10
 },
 {
   "id": 7130,
   "name": "Gatton Campus Airport",
   "city": "Gatton",
   "country": "Australia",
   "iata": null,
   "latitude": -27.5604060653,
   "longitude": 152.340459824,
   "altitude": 0,
   "timezone": 10
 },
 {
   "id": 7566,
   "name": "Barrow Island Airport",
   "city": "Barrow Island",
   "country": "Australia",
   "iata": "BWB",
   "latitude": -20.8644008636475,
   "longitude": 115.40599822998,
   "altitude": 26,
   "timezone": 8
 },
 {
   "id": 7569,
   "name": "Derby Airport",
   "city": "Derby",
   "country": "Australia",
   "iata": "DRB",
   "latitude": -17.3700008392334,
   "longitude": 123.661003112793,
   "altitude": 24,
   "timezone": 8
 },
 {
   "id": 7570,
   "name": "Walgett Airport",
   "city": "Walgett",
   "country": "Australia",
   "iata": "WGE",
   "latitude": -30.0328006744385,
   "longitude": 148.126007080078,
   "altitude": 439,
   "timezone": 10
 },
 {
   "id": 7571,
   "name": "Bathurst Island Airport",
   "city": "Bathurst Island",
   "country": "Australia",
   "iata": "BRT",
   "latitude": -11.7692003250122,
   "longitude": 130.619995117188,
   "altitude": 67,
   "timezone": 9.5
 },
 {
   "id": 7572,
   "name": "Dunk Island Airport",
   "city": "Dunk Island",
   "country": "Australia",
   "iata": "DKI",
   "latitude": -17.9416999817,
   "longitude": 146.13999939,
   "altitude": 6,
   "timezone": 10
 },
 {
   "id": 7573,
   "name": "Lizard Island Airport",
   "city": "Lizard Island",
   "country": "Australia",
   "iata": "LZR",
   "latitude": -14.673273,
   "longitude": 145.454571,
   "altitude": 70,
   "timezone": 10
 },
 {
   "id": 7574,
   "name": "Hamilton Airport",
   "city": "Hamilton",
   "country": "Australia",
   "iata": "HLT",
   "latitude": -37.6488990783691,
   "longitude": 142.065002441406,
   "altitude": 803,
   "timezone": 10
 },
 {
   "id": 7575,
   "name": "Halls Creek Airport",
   "city": "Halls Creek",
   "country": "Australia",
   "iata": "HCQ",
   "latitude": -18.2339000701904,
   "longitude": 127.669998168945,
   "altitude": 1346,
   "timezone": 8
 },
 {
   "id": 7576,
   "name": "Fitzroy Crossing Airport",
   "city": "Fitzroy Crossing",
   "country": "Australia",
   "iata": "FIZ",
   "latitude": -18.1819000244141,
   "longitude": 125.55899810791,
   "altitude": 368,
   "timezone": 8
 },
 {
   "id": 7577,
   "name": "Ravensthorpe Airport",
   "city": "Ravensthorpe",
   "country": "Australia",
   "iata": "RVT",
   "latitude": -33.7971992493,
   "longitude": 120.208000183,
   "altitude": 197,
   "timezone": 8
 },
 {
   "id": 7704,
   "name": "Geelong Airport",
   "city": "Geelong",
   "country": "Australia",
   "iata": "GEX",
   "latitude": -38.2249984741211,
   "longitude": 144.332992553711,
   "altitude": 43,
   "timezone": 10
 },
 {
   "id": 7782,
   "name": "Penneshaw Airport",
   "city": "Penneshaw",
   "country": "Australia",
   "iata": "PEA",
   "latitude": -35.7558462874,
   "longitude": 137.962875366,
   "altitude": 0,
   "timezone": 9.5
 },
 {
   "id": 7811,
   "name": "Redcliffe Airport",
   "city": "Rothwell",
   "country": "Australia",
   "iata": null,
   "latitude": -27.2066993713379,
   "longitude": 153.067993164062,
   "altitude": 2,
   "timezone": 10
 },
 {
   "id": 7879,
   "name": "Phillip Island Airport",
   "city": "Phillip Island",
   "country": "Australia",
   "iata": null,
   "latitude": -38.5233001708984,
   "longitude": 145.326995849609,
   "altitude": 13,
   "timezone": 10
 },
 {
   "id": 7912,
   "name": "Cooinda Airport",
   "city": "Cooinda",
   "country": "Australia",
   "iata": "CDA",
   "latitude": -12.9033002853394,
   "longitude": 132.531997680664,
   "altitude": 13,
   "timezone": 9.5
 },
 {
   "id": 7913,
   "name": "Jabiru Airport",
   "city": "Jabiru",
   "country": "Australia",
   "iata": "JAB",
   "latitude": -12.6583003997803,
   "longitude": 132.893005371094,
   "altitude": 85,
   "timezone": 9.5
 },
 {
   "id": 8265,
   "name": "Telfer Airport",
   "city": "Telfer",
   "country": "Australia",
   "iata": "TEF",
   "latitude": -21.7150001525879,
   "longitude": 122.228996276855,
   "altitude": 970,
   "timezone": 8
 },
 {
   "id": 8348,
   "name": "Renmark Airport",
   "city": "Renmark",
   "country": "Australia",
   "iata": "RMK",
   "latitude": -34.1963996887207,
   "longitude": 140.67399597168,
   "altitude": 115,
   "timezone": 9.5
 },
 {
   "id": 8349,
   "name": "Leigh Creek Airport",
   "city": "Leigh Creek",
   "country": "Australia",
   "iata": "LGH",
   "latitude": -30.5983009338379,
   "longitude": 138.425994873047,
   "altitude": 856,
   "timezone": 9.5
 },
 {
   "id": 8350,
   "name": "Warburton Airport",
   "city": "Warburton Community",
   "country": "Australia",
   "iata": null,
   "latitude": -26.1282997131348,
   "longitude": 126.583000183105,
   "altitude": 1500,
   "timezone": 8
 },
 {
   "id": 8351,
   "name": "Cunderdin Airport",
   "city": "Cunderdin",
   "country": "Australia",
   "iata": null,
   "latitude": -31.622200012207,
   "longitude": 117.217002868652,
   "altitude": 705,
   "timezone": 8
 },
 {
   "id": 8352,
   "name": "Rottnest Island Airport",
   "city": "Rottnest Island",
   "country": "Australia",
   "iata": "RTS",
   "latitude": -32.006699,
   "longitude": 115.540001,
   "altitude": 12,
   "timezone": 8
 },
 {
   "id": 8353,
   "name": "Forrest Airport",
   "city": "Forrest",
   "country": "Australia",
   "iata": "FOS",
   "latitude": -30.8381004333496,
   "longitude": 128.115005493164,
   "altitude": 511,
   "timezone": 8
 },
 {
   "id": 8354,
   "name": "Ballarat Airport",
   "city": "Ballarat",
   "country": "Australia",
   "iata": null,
   "latitude": -37.5116996765137,
   "longitude": 143.791000366211,
   "altitude": 1433,
   "timezone": 10
 },
 {
   "id": 8380,
   "name": "Mallacoota Airport",
   "city": "Mallacoota",
   "country": "Australia",
   "iata": "XMC",
   "latitude": -37.5983009338379,
   "longitude": 149.720001220703,
   "altitude": 31,
   "timezone": 10
 },
 {
   "id": 8395,
   "name": "Yuendumu Airport",
   "city": "Yuendumu ",
   "country": "Australia",
   "iata": "YUE",
   "latitude": -22.2541999816895,
   "longitude": 131.781997680664,
   "altitude": 2205,
   "timezone": 9.5
 },
 {
   "id": 8406,
   "name": "Yarram Airport",
   "city": "Yarram",
   "country": "Australia",
   "iata": null,
   "latitude": -38.5666999816895,
   "longitude": 146.755004882812,
   "altitude": 15,
   "timezone": 10
 },
 {
   "id": 8472,
   "name": "Yalata Mission Airport",
   "city": "Yalata",
   "country": "Australia",
   "iata": "KYI",
   "latitude": -31.4706001281738,
   "longitude": 131.824996948242,
   "altitude": 0,
   "timezone": 9.5
 },
 {
   "id": 8476,
   "name": "Wyndham Airport",
   "city": "Wyndham",
   "country": "Australia",
   "iata": "WYN",
   "latitude": -15.5114002227783,
   "longitude": 128.15299987793,
   "altitude": 14,
   "timezone": 8
 },
 {
   "id": 8696,
   "name": "Beverley Airport",
   "city": "Mine Site",
   "country": "Australia",
   "iata": null,
   "latitude": -30.1867008209229,
   "longitude": 139.557998657227,
   "altitude": 116,
   "timezone": 9.5
 },
 {
   "id": 8820,
   "name": "Great Keppel Is Airport",
   "city": "Great Keppel Island",
   "country": "Australia",
   "iata": "GKL",
   "latitude": -23.1833000183,
   "longitude": 150.942001343,
   "altitude": 21,
   "timezone": 10
 },
 {
   "id": 8821,
   "name": "Roper Bar Airport",
   "city": "Roper Bar",
   "country": "Australia",
   "iata": "RPB",
   "latitude": -14.734814,
   "longitude": 134.525485,
   "altitude": 92,
   "timezone": 9.5
 },
 {
   "id": 8822,
   "name": "Mount Garnet Airport",
   "city": "Mount Garnet",
   "country": "Australia",
   "iata": null,
   "latitude": -17.7000007629395,
   "longitude": 145.149993896484,
   "altitude": 657,
   "timezone": 10
 },
 {
   "id": 8823,
   "name": "Innisfail Airport",
   "city": "Innisfail",
   "country": "Australia",
   "iata": "IFL",
   "latitude": -17.5594005584717,
   "longitude": 146.011993408203,
   "altitude": 46,
   "timezone": 10
 },
 {
   "id": 8831,
   "name": "Moomba Airport",
   "city": "Moomba",
   "country": "Australia",
   "iata": "MOO",
   "latitude": -28.0993995666504,
   "longitude": 140.197006225586,
   "altitude": 143,
   "timezone": 9.5
 },
 {
   "id": 8847,
   "name": "Onslow Airport",
   "city": "Onslow",
   "country": "Australia",
   "iata": "ONS",
   "latitude": -21.668300628662,
   "longitude": 115.1129989624,
   "altitude": 7,
   "timezone": 8
 },
 {
   "id": 8848,
   "name": "Theodore Airport",
   "city": "Theodore",
   "country": "Australia",
   "iata": "TDR",
   "latitude": -24.9932994842529,
   "longitude": 150.093002319336,
   "altitude": 171,
   "timezone": 10
 },
 {
   "id": 8980,
   "name": "Chinchilla Airport",
   "city": "Chinchilla",
   "country": "Australia",
   "iata": "CCL",
   "latitude": -26.7749996185303,
   "longitude": 150.617004394531,
   "altitude": 1028,
   "timezone": 10
 },
 {
   "id": 8984,
   "name": "Shute Harbour Airport",
   "city": "Shute Harbour",
   "country": "Australia",
   "iata": "JHQ",
   "latitude": -20.277221,
   "longitude": 148.755556,
   "altitude": 12,
   "timezone": 10
 },
 {
   "id": 8994,
   "name": "Shepparton Airport",
   "city": "Shepparton",
   "country": "Australia",
   "iata": "SHT",
   "latitude": -36.4289016723633,
   "longitude": 145.393005371094,
   "altitude": 374,
   "timezone": 10
 },
 {
   "id": 8995,
   "name": "Temora Airport",
   "city": "Temora",
   "country": "Australia",
   "iata": "TEM",
   "latitude": -34.4213981628418,
   "longitude": 147.511993408203,
   "altitude": 921,
   "timezone": 10
 },
 {
   "id": 8996,
   "name": "Gayndah Airport",
   "city": "Gayndah",
   "country": "Australia",
   "iata": "GAH",
   "latitude": -25.6144008636475,
   "longitude": 151.619003295898,
   "altitude": 369,
   "timezone": 10
 },
 {
   "id": 8998,
   "name": "Wilcannia Airport",
   "city": "Wilcannia",
   "country": "Australia",
   "iata": "WIO",
   "latitude": -31.5263996124268,
   "longitude": 143.375,
   "altitude": 250,
   "timezone": 10
 },
 {
   "id": 9001,
   "name": "Ivanhoe Airport",
   "city": "Ivanhoe",
   "country": "Australia",
   "iata": null,
   "latitude": -32.88330078125,
   "longitude": 144.309997558594,
   "altitude": 330,
   "timezone": 10
 },
 {
   "id": 9002,
   "name": "Menindee Airport",
   "city": "Menindee",
   "country": "Australia",
   "iata": null,
   "latitude": -32.36669921875,
   "longitude": 142.404998779297,
   "altitude": 0,
   "timezone": 10
 },
 {
   "id": 9004,
   "name": "Pooncarie Airport",
   "city": "Pooncarie",
   "country": "Australia",
   "iata": null,
   "latitude": -33.36669921875,
   "longitude": 142.587997436523,
   "altitude": 50,
   "timezone": 10
 },
 {
   "id": 9006,
   "name": "Tilpa Airport",
   "city": "Tilpa",
   "country": "Australia",
   "iata": null,
   "latitude": -30.9333000183105,
   "longitude": 144.417007446289,
   "altitude": 0,
   "timezone": 10
 },
 {
   "id": 9065,
   "name": "Lake Macquarie Airport",
   "city": "Lake Macquarie",
   "country": "Australia",
   "iata": "BEO",
   "latitude": -33.0667,
   "longitude": 151.647995,
   "altitude": 2,
   "timezone": 10
 },
 {
   "id": 9068,
   "name": "Brampton Island Airport",
   "city": "Brampton Island",
   "country": "Australia",
   "iata": "BMP",
   "latitude": -20.8033008575439,
   "longitude": 149.270004272461,
   "altitude": 11,
   "timezone": 10
 },
 {
   "id": 9090,
   "name": "Busselton Regional Airport",
   "city": "Brusselton",
   "country": "Australia",
   "iata": "BQB",
   "latitude": -33.6884231567,
   "longitude": 115.401596069,
   "altitude": 55,
   "timezone": 8
 },
 {
   "id": 9095,
   "name": "Inverell Airport",
   "city": "Inverell",
   "country": "Australia",
   "iata": "IVR",
   "latitude": -29.888299942,
   "longitude": 151.143997192,
   "altitude": 2667,
   "timezone": 10
 },
 {
   "id": 9096,
   "name": "Glen Innes Airport",
   "city": "Glen Innes",
   "country": "Australia",
   "iata": "GLI",
   "latitude": -29.6749992370605,
   "longitude": 151.688995361328,
   "altitude": 3433,
   "timezone": 10
 },
 {
   "id": 9127,
   "name": "Fortescue - Dave Forrest Aerodrome",
   "city": "Cloudbreak",
   "country": "Australia",
   "iata": "KFE",
   "latitude": -22.290754,
   "longitude": 119.437143,
   "altitude": 1555,
   "timezone": 8
 },
 {
   "id": 9146,
   "name": "Solomon Airport",
   "city": "Solomon",
   "country": "Australia",
   "iata": "SLJ",
   "latitude": -22.2554,
   "longitude": 117.7627,
   "altitude": 2030,
   "timezone": 8
 },
 {
   "id": 9193,
   "name": "Coonabarabran Airport",
   "city": "Coonabarabran",
   "country": "Australia",
   "iata": "COJ",
   "latitude": -31.3325004577637,
   "longitude": 149.266998291016,
   "altitude": 2117,
   "timezone": 10
 },
 {
   "id": 9207,
   "name": "Warnervale Airport",
   "city": "Warnervale Airport",
   "country": "Australia",
   "iata": null,
   "latitude": -33.240278,
   "longitude": 151.429722,
   "altitude": 25,
   "timezone": 10
 },
 {
   "id": 9402,
   "name": "Bairnsdale Airport",
   "city": "Bairnsdale",
   "country": "Australia",
   "iata": "BSJ",
   "latitude": -37.8875007629395,
   "longitude": 147.567993164062,
   "altitude": 165,
   "timezone": 10
 },
 {
   "id": 9532,
   "name": "Prominent Hill Airport",
   "city": "Prominent Hill",
   "country": "Australia",
   "iata": "PXH",
   "latitude": -29.716,
   "longitude": 135.5244,
   "altitude": 745,
   "timezone": 9.5
 },
 {
   "id": 9533,
   "name": "Cowra Airport",
   "city": "Chatsworth",
   "country": "Australia",
   "iata": "CWT",
   "latitude": -33.8446998596191,
   "longitude": 148.649002075195,
   "altitude": 966,
   "timezone": 10
 },
 {
   "id": 9542,
   "name": "Coral Bay Airport",
   "city": "Coral Bay",
   "country": "Australia",
   "iata": null,
   "latitude": -23.1299991607666,
   "longitude": 113.777000427246,
   "altitude": 5,
   "timezone": 8
 },
 {
   "id": 9818,
   "name": "Lilydale Airport",
   "city": "Lilydale",
   "country": "Australia",
   "iata": null,
   "latitude": -37.6916999816895,
   "longitude": 145.367004394531,
   "altitude": 76,
   "timezone": 10
 },
 {
   "id": 9853,
   "name": "Toowoomba Wellcamp Airport",
   "city": "Toowoomba",
   "country": "Australia",
   "iata": "WTB",
   "latitude": -27.558332,
   "longitude": 151.793335,
   "altitude": 1509,
   "timezone": 10
 },
 {
   "id": 9901,
   "name": "Clermont Airport",
   "city": "Clermont",
   "country": "Australia",
   "iata": "CMQ",
   "latitude": -22.773099899292,
   "longitude": 147.621002197266,
   "altitude": 908,
   "timezone": 10
 },
 {
   "id": 9902,
   "name": "Warrnambool Airport",
   "city": "Warrnambool",
   "country": "Australia",
   "iata": "WMB",
   "latitude": -38.2952995300293,
   "longitude": 142.447006225586,
   "altitude": 242,
   "timezone": 10
 },
 {
   "id": 9904,
   "name": "Richmond Airport",
   "city": "Richmond",
   "country": "Australia",
   "iata": "RCM",
   "latitude": -20.7019004821777,
   "longitude": 143.115005493164,
   "altitude": 676,
   "timezone": 10
 },
 {
   "id": 9905,
   "name": "RAAF Base Curtin",
   "city": "Derby",
   "country": "Australia",
   "iata": "DCN",
   "latitude": -17.5813999176,
   "longitude": 123.82800293,
   "altitude": 300,
   "timezone": 8
 },
 {
   "id": 10116,
   "name": "Bunbury Airport",
   "city": "Bunbury",
   "country": "Australia",
   "iata": "BUY",
   "latitude": -33.3782997131348,
   "longitude": 115.677001953125,
   "altitude": 53,
   "timezone": 8
 },
 {
   "id": 10140,
   "name": "Atherton Airport",
   "city": "Atherton",
   "country": "Australia",
   "iata": null,
   "latitude": -17.2616996765,
   "longitude": 145.51499939,
   "altitude": 2450,
   "timezone": 10
 },
 {
   "id": 10370,
   "name": "Kadina Airport",
   "city": "Kadina",
   "country": "Australia",
   "iata": null,
   "latitude": -33.9766998291016,
   "longitude": 137.660003662109,
   "altitude": 42,
   "timezone": 9.5
 },
 {
   "id": 10378,
   "name": "Coondewanna Airport",
   "city": "Coondewanna",
   "country": "Australia",
   "iata": "CJF",
   "latitude": -22.96669960022,
   "longitude": 118.81300354004,
   "altitude": 2300,
   "timezone": 8
 },
 {
   "id": 10618,
   "name": "Borroloola Airport",
   "city": "Borroloola",
   "country": "Australia",
   "iata": "BOX",
   "latitude": -16.0753002166748,
   "longitude": 136.302001953125,
   "altitude": 55,
   "timezone": 9.5
 },
 {
   "id": 11030,
   "name": "Port Keats Airport",
   "city": "Wadeye",
   "country": "Australia",
   "iata": "PKT",
   "latitude": -14.25,
   "longitude": 129.529006958008,
   "altitude": 91,
   "timezone": 9.5
 },
 {
   "id": 11031,
   "name": "Garden Point Airport",
   "city": "Pirlangimpi",
   "country": "Australia",
   "iata": "GPN",
   "latitude": -11.4025001525879,
   "longitude": 130.421997070312,
   "altitude": 90,
   "timezone": 9.5
 },
 {
   "id": 11038,
   "name": "Flinders Island Airport",
   "city": "Elliston",
   "country": "Australia",
   "iata": null,
   "latitude": -33.730989,
   "longitude": 134.501,
   "altitude": 0,
   "timezone": 9.5
 },
 {
   "id": 11272,
   "name": "Murray Bridge Airport",
   "city": "Murray Bridge",
   "country": "Australia",
   "iata": null,
   "latitude": -35.0666999816895,
   "longitude": 139.227005004883,
   "altitude": 55,
   "timezone": 10
 },
 {
   "id": 11273,
   "name": "Horsham Airport",
   "city": "Horsham",
   "country": "Australia",
   "iata": "HSM",
   "latitude": -36.6697006225586,
   "longitude": 142.173004150391,
   "altitude": 445,
   "timezone": 10
 },
 {
   "id": 11274,
   "name": "Swan Hill Airport",
   "city": "Swan Hill",
   "country": "Australia",
   "iata": "SWH",
   "latitude": -35.3758010864258,
   "longitude": 143.533004760742,
   "altitude": 234,
   "timezone": 10
 },
 {
   "id": 11658,
   "name": "Dulkaninna Airport",
   "city": "Dulkaninna",
   "country": "Australia",
   "iata": "DLK",
   "latitude": -29.0132999420166,
   "longitude": 138.481002807617,
   "altitude": 0,
   "timezone": 9.5
 },
 {
   "id": 11673,
   "name": "William Creek Airport",
   "city": "William Creek",
   "country": "Australia",
   "iata": null,
   "latitude": -28.9067001342773,
   "longitude": 136.341995239258,
   "altitude": 91,
   "timezone": 9.5
 },
 {
   "id": 11717,
   "name": "Taroom Airport",
   "city": "Taroom",
   "country": "Australia",
   "iata": "XTO",
   "latitude": -25.801700592041,
   "longitude": 149.899993896484,
   "altitude": 240,
   "timezone": 10
 },
 {
   "id": 12011,
   "name": "Alpha Airport",
   "city": "Alpha",
   "country": "Australia",
   "iata": "ABH",
   "latitude": -23.646099,
   "longitude": 146.584,
   "altitude": 1255,
   "timezone": null
 },
 {
   "id": 12012,
   "name": "Ararat Airport",
   "city": "",
   "country": "Australia",
   "iata": "ARY",
   "latitude": -37.309398651123,
   "longitude": 142.988998413086,
   "altitude": 1008,
   "timezone": null
 },
 {
   "id": 12013,
   "name": "Benalla Airport",
   "city": "",
   "country": "Australia",
   "iata": "BLN",
   "latitude": -36.5518989562988,
   "longitude": 146.00700378418,
   "altitude": 569,
   "timezone": null
 },
 {
   "id": 12014,
   "name": "Balranald Airport",
   "city": "",
   "country": "Australia",
   "iata": "BZD",
   "latitude": -34.6236000061035,
   "longitude": 143.578002929688,
   "altitude": 210,
   "timezone": null
 },
 {
   "id": 12015,
   "name": "Brewarrina Airport",
   "city": "",
   "country": "Australia",
   "iata": "BWQ",
   "latitude": -29.9738998413086,
   "longitude": 146.817001342773,
   "altitude": 414,
   "timezone": null
 },
 {
   "id": 12016,
   "name": "Cleve Airport",
   "city": "",
   "country": "Australia",
   "iata": "CVC",
   "latitude": -33.7097015380859,
   "longitude": 136.505004882812,
   "altitude": 589,
   "timezone": null
 },
 {
   "id": 12017,
   "name": "Corowa Airport",
   "city": "",
   "country": "Australia",
   "iata": "CWW",
   "latitude": -35.994701385498,
   "longitude": 146.356994628906,
   "altitude": 469,
   "timezone": null
 },
 {
   "id": 12018,
   "name": "Corryong Airport",
   "city": "",
   "country": "Australia",
   "iata": "CYG",
   "latitude": -36.1828002929688,
   "longitude": 147.888000488281,
   "altitude": 963,
   "timezone": null
 },
 {
   "id": 12019,
   "name": "Cootamundra Airport",
   "city": "",
   "country": "Australia",
   "iata": "CMD",
   "latitude": -34.6239013671875,
   "longitude": 148.02799987793,
   "altitude": 1110,
   "timezone": null
 },
 {
   "id": 12020,
   "name": "Dirranbandi Airport",
   "city": "",
   "country": "Australia",
   "iata": "DRN",
   "latitude": -28.5916996002197,
   "longitude": 148.216995239258,
   "altitude": 567,
   "timezone": null
 },
 {
   "id": 12021,
   "name": "Deniliquin Airport",
   "city": "Deniliquin",
   "country": "Australia",
   "iata": "DNQ",
   "latitude": -35.5593986511,
   "longitude": 144.945999146,
   "altitude": 316,
   "timezone": null
 },
 {
   "id": 12022,
   "name": "Dysart Airport",
   "city": "",
   "country": "Australia",
   "iata": "DYA",
   "latitude": -22.622200012207,
   "longitude": 148.363998413086,
   "altitude": 670,
   "timezone": null
 },
 {
   "id": 12023,
   "name": "Echuca Airport",
   "city": "",
   "country": "Australia",
   "iata": "ECH",
   "latitude": -36.1571998596191,
   "longitude": 144.761993408203,
   "altitude": 323,
   "timezone": null
 },
 {
   "id": 12024,
   "name": "Forbes Airport",
   "city": "Forbes",
   "country": "Australia",
   "iata": "FRB",
   "latitude": -33.363602,
   "longitude": 147.934998,
   "altitude": 760,
   "timezone": null
 },
 {
   "id": 12025,
   "name": "Gunnedah Airport",
   "city": "",
   "country": "Australia",
   "iata": "GUH",
   "latitude": -30.9610996246338,
   "longitude": 150.251007080078,
   "altitude": 863,
   "timezone": null
 },
 {
   "id": 12026,
   "name": "Hay Airport",
   "city": "",
   "country": "Australia",
   "iata": "HXX",
   "latitude": -34.5313987731934,
   "longitude": 144.830001831055,
   "altitude": 305,
   "timezone": null
 },
 {
   "id": 12027,
   "name": "Hopetoun Airport",
   "city": "",
   "country": "Australia",
   "iata": "HTU",
   "latitude": -35.7153015136719,
   "longitude": 142.360000610352,
   "altitude": 256,
   "timezone": null
 },
 {
   "id": 12028,
   "name": "Kerang Airport",
   "city": "",
   "country": "Australia",
   "iata": "KRA",
   "latitude": -35.7513999938965,
   "longitude": 143.938995361328,
   "altitude": 254,
   "timezone": null
 },
 {
   "id": 12029,
   "name": "Kempsey Airport",
   "city": "",
   "country": "Australia",
   "iata": "KPS",
   "latitude": -31.0743999481201,
   "longitude": 152.770004272461,
   "altitude": 54,
   "timezone": null
 },
 {
   "id": 12030,
   "name": "Kingaroy Airport",
   "city": "",
   "country": "Australia",
   "iata": "KGY",
   "latitude": -26.5807991027832,
   "longitude": 151.841003417969,
   "altitude": 1492,
   "timezone": null
 },
 {
   "id": 12031,
   "name": "Latrobe Valley Airport",
   "city": "Morwell",
   "country": "Australia",
   "iata": "TGN",
   "latitude": -38.207199,
   "longitude": 146.470001,
   "altitude": 180,
   "timezone": null
 },
 {
   "id": 12032,
   "name": "Mareeba Airport",
   "city": "",
   "country": "Australia",
   "iata": "MRG",
   "latitude": -17.0692005157471,
   "longitude": 145.419006347656,
   "altitude": 1560,
   "timezone": null
 },
 {
   "id": 12033,
   "name": "Ngukurr Airport",
   "city": "",
   "country": "Australia",
   "iata": "RPM",
   "latitude": -14.7228002548218,
   "longitude": 134.746994018555,
   "altitude": 45,
   "timezone": null
 },
 {
   "id": 12034,
   "name": "Narromine Airport",
   "city": "",
   "country": "Australia",
   "iata": "QRM",
   "latitude": -32.2146987915039,
   "longitude": 148.225006103516,
   "altitude": 782,
   "timezone": null
 },
 {
   "id": 12035,
   "name": "Port Pirie Airport",
   "city": "",
   "country": "Australia",
   "iata": "PPI",
   "latitude": -33.238899230957,
   "longitude": 137.994995117188,
   "altitude": 40,
   "timezone": null
 },
 {
   "id": 12036,
   "name": "Smithton Airport",
   "city": "",
   "country": "Australia",
   "iata": "SIO",
   "latitude": -40.8349990844727,
   "longitude": 145.083999633789,
   "altitude": 31,
   "timezone": null
 },
 {
   "id": 12037,
   "name": "Snake Bay Airport",
   "city": "",
   "country": "Australia",
   "iata": "SNB",
   "latitude": -11.4228000640869,
   "longitude": 130.654006958008,
   "altitude": 173,
   "timezone": null
 },
 {
   "id": 12038,
   "name": "Stawell Airport",
   "city": "",
   "country": "Australia",
   "iata": "SWC",
   "latitude": -37.0717010498047,
   "longitude": 142.740997314453,
   "altitude": 807,
   "timezone": null
 },
 {
   "id": 12039,
   "name": "Tibooburra Airport",
   "city": "",
   "country": "Australia",
   "iata": "TYB",
   "latitude": -29.451099395752,
   "longitude": 142.057998657227,
   "altitude": 584,
   "timezone": null
 },
 {
   "id": 12040,
   "name": "Tumut Airport",
   "city": "",
   "country": "Australia",
   "iata": "TUM",
   "latitude": -35.2627983093262,
   "longitude": 148.240997314453,
   "altitude": 878,
   "timezone": null
 },
 {
   "id": 12041,
   "name": "Wangaratta Airport",
   "city": "",
   "country": "Australia",
   "iata": "WGT",
   "latitude": -36.4157981872559,
   "longitude": 146.307006835938,
   "altitude": 504,
   "timezone": null
 },
 {
   "id": 12042,
   "name": "Warracknabeal Airport",
   "city": "",
   "country": "Australia",
   "iata": "WKB",
   "latitude": -36.3210983276367,
   "longitude": 142.419006347656,
   "altitude": 397,
   "timezone": null
 },
 {
   "id": 12043,
   "name": "Warren Airport",
   "city": "",
   "country": "Australia",
   "iata": "QRR",
   "latitude": -31.7332992553711,
   "longitude": 147.802993774414,
   "altitude": 669,
   "timezone": null
 },
 {
   "id": 12044,
   "name": "West Sale Airport",
   "city": "Sale",
   "country": "Australia",
   "iata": "SXE",
   "latitude": -38.090827,
   "longitude": 146.965335,
   "altitude": 72,
   "timezone": null
 },
 {
   "id": 12045,
   "name": "West Wyalong Airport",
   "city": "West Wyalong",
   "country": "Australia",
   "iata": "WWY",
   "latitude": -33.9371986389,
   "longitude": 147.190994263,
   "altitude": 859,
   "timezone": null
 },
 {
   "id": 12046,
   "name": "Young Airport",
   "city": "",
   "country": "Australia",
   "iata": "NGA",
   "latitude": -34.2555999755859,
   "longitude": 148.248001098633,
   "altitude": 1267,
   "timezone": null
 },
 {
   "id": 12172,
   "name": "Hermannsburg Airport",
   "city": "Hermannsburg",
   "country": "Australia",
   "iata": "HMG",
   "latitude": -23.9300003051758,
   "longitude": 132.804992675781,
   "altitude": 593,
   "timezone": 9.5
 },
 {
   "id": 12182,
   "name": "Mount Davies Airport",
   "city": "Pipalyatjara",
   "country": "Australia",
   "iata": null,
   "latitude": -26.1667003631592,
   "longitude": 129.132995605469,
   "altitude": 0,
   "timezone": 9.5
 },
 {
   "id": 12183,
   "name": "Areyonga Airport",
   "city": "Areyonga",
   "country": "Australia",
   "iata": null,
   "latitude": -24.0666999816895,
   "longitude": 132.266998291016,
   "altitude": 0,
   "timezone": 9.5
 },
 {
   "id": 12217,
   "name": "Mount Allan Airport",
   "city": "Yuelamu",
   "country": "Australia",
   "iata": null,
   "latitude": -22.2749996185303,
   "longitude": 132.216995239258,
   "altitude": 0,
   "timezone": 9.5
 },
 {
   "id": 12218,
   "name": "Everard Park Airport",
   "city": "Mimili",
   "country": "Australia",
   "iata": null,
   "latitude": -27.0167007446289,
   "longitude": 132.716995239258,
   "altitude": 0,
   "timezone": 9.5
 },
 {
   "id": 12219,
   "name": "Warrabri Airport",
   "city": "Ali-Curung",
   "country": "Australia",
   "iata": null,
   "latitude": -21,
   "longitude": 134.397003173828,
   "altitude": 383,
   "timezone": 9.5
 },
 {
   "id": 12340,
   "name": "Ampilatwatja Airport",
   "city": "Ampilatwatja",
   "country": "Australia",
   "iata": null,
   "latitude": -21.6550006866455,
   "longitude": 135.229995727539,
   "altitude": 0,
   "timezone": 9.5
 },
 {
   "id": 12360,
   "name": "Kings Creek Airport",
   "city": "Petermann",
   "country": "Australia",
   "iata": "KCS",
   "latitude": -24.4232997894287,
   "longitude": 131.835006713867,
   "altitude": 615,
   "timezone": 9.5
 },
 {
   "id": 12361,
   "name": "Harts Range Airport",
   "city": "Harts Range",
   "country": "Australia",
   "iata": null,
   "latitude": -22.9850006103516,
   "longitude": 134.917999267578,
   "altitude": 0,
   "timezone": 9.5
 },
 {
   "id": 12391,
   "name": "Elliott Airport",
   "city": "Elliott",
   "country": "Australia",
   "iata": null,
   "latitude": -17.5274295806885,
   "longitude": 133.529891967773,
   "altitude": 0,
   "timezone": 9.5
 },
 {
   "id": 12392,
   "name": "Papunya Airport",
   "city": "Papunya",
   "country": "Australia",
   "iata": null,
   "latitude": -23.2467002868652,
   "longitude": 131.90299987793,
   "altitude": 620,
   "timezone": 9.5
 },
 {
   "id": 12444,
   "name": "Fregon Airport",
   "city": "Fregon",
   "country": "Australia",
   "iata": null,
   "latitude": -26.7749996185303,
   "longitude": 132.016998291016,
   "altitude": 528,
   "timezone": 9.5
 },
 {
   "id": 12445,
   "name": "Mount Liebig Airport",
   "city": "Mt Liebig",
   "country": "Australia",
   "iata": null,
   "latitude": -23.2432994842529,
   "longitude": 131.259994506836,
   "altitude": 0,
   "timezone": 9.5
 },
 {
   "id": 12618,
   "name": "Goondiwindi Airport",
   "city": "Goondiwindi",
   "country": "Australia",
   "iata": "GOO",
   "latitude": -28.5214004516602,
   "longitude": 150.320007324219,
   "altitude": 714,
   "timezone": 10
 },
 {
   "id": 12844,
   "name": "Docker River Airport",
   "city": "Docker River",
   "country": "Australia",
   "iata": "DKV",
   "latitude": -24.8600006103516,
   "longitude": 129.070007324219,
   "altitude": 589,
   "timezone": 9.5
 },
 {
   "id": 12918,
   "name": "Ti Tree Airport",
   "city": "Ti Tree",
   "country": "Australia",
   "iata": null,
   "latitude": -22.1317005157471,
   "longitude": 133.419998168945,
   "altitude": 0,
   "timezone": 9.5
 },
 {
   "id": 12948,
   "name": "Kintore Airport",
   "city": "Kintore",
   "country": "Australia",
   "iata": null,
   "latitude": -23.2649993896484,
   "longitude": 129.386993408203,
   "altitude": 0,
   "timezone": 9.5
 },
 {
   "id": 12951,
   "name": "Utopia Airport",
   "city": "Utopia",
   "country": "Australia",
   "iata": null,
   "latitude": -22.0550003051758,
   "longitude": 134.789993286133,
   "altitude": 0,
   "timezone": 9.5
 },
 {
   "id": 12957,
   "name": "Nyrripi Airport",
   "city": "Nyirripi",
   "country": "Australia",
   "iata": null,
   "latitude": -22.645299911499,
   "longitude": 130.565002441406,
   "altitude": 0,
   "timezone": 9.5
 },
 {
   "id": 12958,
   "name": "Amata Airport",
   "city": "Amata",
   "country": "Australia",
   "iata": "AMT",
   "latitude": -26.1082992553711,
   "longitude": 131.207000732422,
   "altitude": 695,
   "timezone": 9.5
 },
 {
   "id": 12979,
   "name": "Erldunda Airport",
   "city": "Erldunda",
   "country": "Australia",
   "iata": "EDD",
   "latitude": -25.2057991028,
   "longitude": 133.253997803,
   "altitude": 0,
   "timezone": 9.5
 },
 {
   "id": 12984,
   "name": "Finke Airport",
   "city": "Finke",
   "country": "Australia",
   "iata": "FIK",
   "latitude": -25.5946998596,
   "longitude": 134.582992554,
   "altitude": 0,
   "timezone": 9.5
 },
 {
   "id": 13004,
   "name": "Nypari Airport",
   "city": "Angatja Homeland",
   "country": "Australia",
   "iata": null,
   "latitude": -26.2000007629395,
   "longitude": 130.233001708984,
   "altitude": 0,
   "timezone": 9.5
 },
 {
   "id": 13210,
   "name": "Bowen Airport",
   "city": "Bowen",
   "country": "Australia",
   "iata": "ZBO",
   "latitude": -20.0182991027832,
   "longitude": 148.214996337891,
   "altitude": 8,
   "timezone": 10
 },
 {
   "id": 13227,
   "name": "Boolgeeda",
   "city": "Brockman",
   "country": "Australia",
   "iata": "OCM",
   "latitude": -22.54,
   "longitude": 117.275,
   "altitude": 1871,
   "timezone": 8
 },
 {
   "id": 13306,
   "name": "Coonawarra Airport",
   "city": "Coonawarra",
   "country": "Australia",
   "iata": null,
   "latitude": -37.2832984924316,
   "longitude": 140.800003051758,
   "altitude": 0,
   "timezone": 9.5
 },
 {
   "id": 13307,
   "name": "Naracoorte Airport",
   "city": "Naracoorte",
   "country": "Australia",
   "iata": "NAC",
   "latitude": -36.9852981567383,
   "longitude": 140.725006103516,
   "altitude": 169,
   "timezone": 9.5
 },
 {
   "id": 13335,
   "name": "Caloundra Airport",
   "city": "Caloundra",
   "country": "Australia",
   "iata": "CUD",
   "latitude": -26.7999992370605,
   "longitude": 153.100006103516,
   "altitude": 12,
   "timezone": 10
 },
 {
   "id": 13598,
   "name": "Croker Island Airport",
   "city": "Croker Island",
   "country": "Australia",
   "iata": "CKI",
   "latitude": -11.164999961853,
   "longitude": 132.483001708984,
   "altitude": 16,
   "timezone": 9.5
 },
 {
   "id": 13599,
   "name": "The Granites Airport",
   "city": "The Granites",
   "country": "Australia",
   "iata": null,
   "latitude": -20.5482997894287,
   "longitude": 130.34700012207,
   "altitude": 0,
   "timezone": 9.5
 },
 {
   "id": 13600,
   "name": "Barimunya Airport",
   "city": "Barimunya",
   "country": "Australia",
   "iata": "BYP",
   "latitude": -22.673900604248,
   "longitude": 119.16600036621,
   "altitude": 2082,
   "timezone": 8
 },
 {
   "id": 13671,
   "name": "Noonkanbah Airport",
   "city": "Noonkanbah",
   "country": "Australia",
   "iata": "NKB",
   "latitude": -18.4946994781,
   "longitude": 124.851997375,
   "altitude": 0,
   "timezone": 8
 },
 {
   "id": 13752,
   "name": "Umuwa Airport",
   "city": "Umuwa",
   "country": "Australia",
   "iata": null,
   "latitude": -26.4867000579834,
   "longitude": 132.039993286133,
   "altitude": 0,
   "timezone": 9.5
 },
 {
   "id": 13792,
   "name": "Mount Weld Airport",
   "city": "Laverton",
   "country": "Australia",
   "iata": null,
   "latitude": -28.7716999053955,
   "longitude": 122.440002441406,
   "altitude": 0,
   "timezone": 8
 },
 {
   "id": 13793,
   "name": "Kidston Airport",
   "city": "Kidston",
   "country": "Australia",
   "iata": null,
   "latitude": -18.8700008392334,
   "longitude": 144.173004150391,
   "altitude": 494,
   "timezone": 10
 },
 {
   "id": 13891,
   "name": "Mangalore Airport",
   "city": "Mangalore",
   "country": "Australia",
   "iata": null,
   "latitude": -36.8883018493652,
   "longitude": 145.184005737305,
   "altitude": 467,
   "timezone": 10
 }
]